address,Latitude,Longitude,"Accuracy Score","Accuracy Type",Number,Street,"Unit Type","Unit Number",City,State,County,Zip,Country,Source
"1700 W Exchange St,Akron,OH",41.108003,-81.567957,1,rooftop,1700,"W Exchange St",,,Akron,OH,"Summit County",44313,US,Summit
"2235 Lake Avenue,Altadena,CA",34.184237,-118.131806,0.9,rooftop,2235,"N Lake Ave",,,Altadena,CA,"Los Angeles County",91001,US,"Los Angeles County"
"6800 US-67,Alvarado,TX",32.415481,-97.231891,1,rooftop,6800,"E US Highway 67",,,Alvarado,TX,"Johnson County",76009,US,Johnson
"8290 E. Crystal Drive,Anaheim,CA",33.873382,-117.747838,1,rooftop,8290,"E Crystal Dr",,,Anaheim,CA,"Orange County",92807,US,"City of Anaheim"
"6563 Deschutes Road,Anderson,CA",40.477423,-122.240067,1,rooftop,6563,"Deschutes Rd",,,Anderson,CA,"Shasta County",96007,US,"Shasta County"
"3000 10th Street N,Arlington,VA",38.884265,-77.094031,1,rooftop,3000,"10th St N",,,Arlington,VA,"Arlington County",22201,US,Arlington
"1199 East Grande Avenue,Arroyo Grande,CA",35.120219,-120.600141,0.9,rooftop,1199,"E Grand Ave",,,"Arroyo Grande",CA,"San Luis Obispo County",93420,US,"San Luis Obispo County"
"705 Main St,Ashton,IL",41.865941,-89.222917,1,rooftop,705,"Main St",,,Ashton,IL,"Lee County",61006,US,Lee
"1380 El Camino Real,Atascadero,CA",35.518378,-120.702005,1,rooftop,1380,"El Camino Real",,,Atascadero,CA,"San Luis Obispo County",93422,US,"San Luis Obispo County"
"8165 Morrow Road,Atascadero,CA",35.472045,-120.668835,1,range_interpolation,8165,"Morro Rd",,,Atascadero,CA,"San Luis Obispo County",93422,US,"TIGER/Line® dataset from the US Census Bureau"
"3060 North Ashby Road,Atwater,CA",37.332597,-120.570696,1,rooftop,3060,"N Ashby Rd",,,Atwater,CA,"Merced County",95301,US,"Merced County"
"2400 E. Cesar Chavez St,Austin,TX",30.254861,-97.717624,1,rooftop,2400,"E Cesar Chavez St",,,Austin,TX,"Travis County",78702,US,Capcog
"7005 Mapleridge St,Bellaire,TX",29.703721,-95.473169,1,rooftop,7005,"Mapleridge St",,,Bellaire,TX,"Harris County",77401,US,"Greater Houston"
"2126 Hasteb Street,Berkeley,CA",37.860576,-122.29673,0.33,place,,,,,Berkeley,CA,"Alameda County",94701,US,"TIGER/Line® dataset from the US Census Bureau"
"2830 Hunters Loop,Blackfoot,ID",43.212586,-112.31769,1,rooftop,2830,"Hunters Loop",,,Blackfoot,ID,"Bingham County",83221,US,Bingham
"1400 South Telegraph Road,Bloomfield Hills,MI",42.618262,-83.318826,1,rooftop,1400,"S Telegraph Rd",,,"Bloomfield Hills",MI,"Oakland County",48302,US,Oakland
"118 Greenwood Avenue,Bloomington,IL",40.457838,-89.001433,1,rooftop,118,"Greenwood Ave",,,Bloomington,IL,"McLean County",61704,US,Mclean
"27244 Highway 189,Blue Jay,CA",34.247487,-117.209445,1,rooftop,27244,"State Hwy 189",,,"Blue Jay",CA,"San Bernardino County",92317,US,"San Bernardino County"
"3435 N. Cole Road,Boise,ID",43.636321,-116.274583,1,rooftop,3435,"N Cole Rd",,,Boise,ID,"Ada County",83704,US,"City of Boise"
"350 South Huntington Avenue,Boston,MA",42.322763,-71.111042,0.9,rooftop,350,"S Huntington Ave",,,"Jamaica Plain",MA,"Suffolk County",02130,US,"City of Boston"
"16152 Highway 9,Breckenridge,CO",39.565385,-106.051736,1,rooftop,16152,"State Hwy 9",,,Breckenridge,CO,"Summit County",80424,US,Summit
"4 hardscrabble Heights,Brewster,NY",41.362273,-73.616941,1,rooftop,4,"Hardscrabble Hts",,,Brewster,NY,"Putnam County",10509,US,"NYS GIS Program Office, State Geographic Information Officer (GIO)"
"318 Warren St,Brooklyn,NY",40.685563,-73.991887,1,rooftop,318,"Warren St",,,Brooklyn,NY,"Kings County",11201,US,"City of New York"
"1515 Busch Parkway,Buffalo Grove,IL",42.171154,-87.923996,1,rooftop,1515,"Busch Pkwy",,,"Buffalo Grove",IL,"Lake County",60089,US,Lake
"7661 County Rd 244,Caldwell,TX",30.512178,-96.573162,1,rooftop,7661,"County Rd 244",,,Caldwell,TX,"Burleson County",77836,US,Burleson
"200 Vandergrift Blvd,Camp Pendleton,CA",33.387723,-117.444758,0.33,place,,,,,"Camp Pendleton",CA,"San Diego County",92055,US,"TIGER/Line® dataset from the US Census Bureau"
"137 E. Hamilton Avenue,Campbell,CA",37.294673,-121.94742,1,rooftop,137,"E Hamilton Ave",,,Campbell,CA,"Santa Clara County",95008,US,"Santa Clara County"
"907 Dell Avenue,Campbell,CA",37.273707,-121.952385,1,range_interpolation,907,"Dell Ave",,,Campbell,CA,"Santa Clara County",95008,US,"TIGER/Line® dataset from the US Census Bureau"
"4813 Arbor Hill Road,Canton,GA",34.237291,-84.31833,1,rooftop,4813,"Arbor Hill Rd",,,Canton,GA,"Cherokee County",30115,US,Cherokee
"715 Cape Coral Parkway,Cape Coral,FL",26.563081,-81.959151,0.6,rooftop,715,"Cape Coral Pkwy E",,,"Cape Coral",FL,"Lee County",33904,US,Lee
"2310 Faraday Avenue,Carlsbad,CA",33.135994,-117.27628,1,rooftop,2310,"Faraday Ave",,,Carlsbad,CA,"San Diego County",92008,US,"San Diego Geographic Information Source - JPA"
"2505 S. Vista Way,Carlsbad,CA",33.179758,-117.330901,1,range_interpolation,2505,"S Vista Way",,,Carlsbad,CA,"San Diego County",92008,US,"TIGER/Line® dataset from the US Census Bureau"
"4990 Manzanita Avenue,Carmichael,CA",38.65552,-121.327079,1,rooftop,4990,"Manzanita Ave",,,Carmichael,CA,"Sacramento County",95608,US,"Secramento County"
"32100 N. CAvenue Creek Road,Cave Creek,AZ",33.276539,-112.18717,0.33,place,,,,,"Cave Creek",AZ,"Maricopa County",85327,US,"TIGER/Line® dataset from the US Census Bureau"
"1203 North Main,Cedar City,UT",37.699609,-113.064383,1,rooftop,1203,"N Main St",,,"Cedar City",UT,"Iron County",84721,US,"Utah AGRC (and individual UT counties)"
"10701 South Street,Cerritos,CA",33.858629,-118.107944,1,rooftop,10701,"South St",,,Cerritos,CA,"Los Angeles County",90703,US,"Los Angeles County"
"3484 Shelby Ray Ct.,Charleston,SC",32.821348,-80.069025,1,rooftop,3484,"Shelby Ray Ct",,,Charleston,SC,"Charleston County",29414,US,"City of Charleston"
"2225 Township Road,Charlotte,NC",35.132529,-80.942035,1,rooftop,2225,"Township Rd",,,Charlotte,NC,"Mecklenburg County",28273,US,Mecklenburg
"1100 Eden Way N,Chesapeake,VA",36.777973,-76.223371,1,rooftop,1100,"Eden Way N",,,Chesapeake,VA,"Chesapeake city",23320,US,"City of Chesapeake"
"3123 N. Clybourn Avenue,Chicago,IL",41.938471,-87.686178,1,rooftop,3123,"N Clybourn Ave",,,Chicago,IL,"Cook County",60618,US,"City of Chicago"
"2480 Drive Martin Luther King Jr. Parkway,Chico,CA",39.774328,-121.864446,0.5,street_center,,"Troy Ln",,,Chico,CA,"Butte County",95973,US,"TIGER/Line® dataset from the US Census Bureau"
"3415 Chino Avenue,Chino,CA",34.011437,-117.730695,1,range_interpolation,3415,"Chino Ave",,,Chino,CA,"San Bernardino County",91710,US,"TIGER/Line® dataset from the US Census Bureau"
"2945 English Place,Chino Hills,CA",33.995452,-117.739198,1,range_interpolation,2945,"English Pl",,,"Chino Hills",CA,"San Bernardino County",91709,US,"TIGER/Line® dataset from the US Census Bureau"
"6418 Tupelo Drive,Citrus Heights,CA",38.70526,-121.315115,1,rooftop,6418,"Tupelo Dr",,,"Citrus Heights",CA,"Sacramento County",95621,US,"Secramento County"
"601 Vernon Tharp St,Columbus,OH",40.001775,-83.027307,1,range_interpolation,601,"Vernon Tharp St",,,Columbus,OH,"Franklin County",43210,US,"TIGER/Line® dataset from the US Census Bureau"
"2160 N. University Drive,Coral Springs,FL",28.062,-82.413225,0.27,place,,,,,University,FL,"Hillsborough County",33620,US,"TIGER/Line® dataset from the US Census Bureau"
"5796 Paradise Drive,Corte Madera,CA",37.92325,-122.512339,1,rooftop,5796,"Paradise Dr",,,"Corte Madera",CA,"Marin County",94925,US,"Marin County"
"125 Mesa Drive,Costa Mesa,CA",33.664592,-117.89357,1,rooftop,125,"Mesa Dr",,,"Costa Mesa",CA,"Orange County",92627,US,"Orange County"
"1912 Harbor Blvd,Costa Mesa,Ca",33.644041,-117.9186,1,rooftop,1912,"Harbor Blvd",,,"Costa Mesa",CA,"Orange County",92627,US,"Orange County"
"20633 Gas Point Road,Cottonwood,CA",40.388701,-122.288756,1,rooftop,20633,"Gas Point Rd",,,Cottonwood,CA,"Shasta County",96022,US,"Shasta County"
"163 Burlington Path Road,Cream Ridge,NJ",40.134061,-74.526048,1,range_interpolation,163,"Burlington Path Rd",,,"Cream Ridge",NJ,"Monmouth County",08514,US,"TIGER/Line® dataset from the US Census Bureau"
"10969 Broadway,Crown Point,IN",41.41598,-87.335251,1,range_interpolation,10969,Broadway,,,"Crown Point",IN,"Lake County",46307,US,"TIGER/Line® dataset from the US Census Bureau"
"9599 Jefferson Blvd,Culver City,CA",34.017533,-118.388446,1,rooftop,9599,"Jefferson Blvd",,,"Culver City",CA,"Los Angeles County",90232,US,"City of Culver City"
"135 SE Fir Villa Road,Dallas,OR",44.927995,-123.281488,1,rooftop,135,"SE Fir Villa Rd",,,Dallas,OR,"Polk County",97338,US,"Marion And Polk"
"One Shields Avenue,Davis,CA",38.55413,-121.798469,1,place,,,,,Davis,CA,"Yolo County",95616,US,"TIGER/Line® dataset from the US Census Bureau"
"451 Canyon Del Rey Blvd,Del Rey Oaks,CA",35.134257,-120.57685,1,range_interpolation,451,"Canyon Way",,,"Arroyo Grande",CA,"San Luis Obispo County",93420,US,"TIGER/Line® dataset from the US Census Bureau"
"2161 Hwy 48 N,Dickson,TN",36.105595,-87.373928,1,rooftop,2161,"Hwy 48",,,Dickson,TN,"Dickson County",37055,US,Statewide
"2551 Warrenville Road,Downers Grove,IL",41.80696,-88.045928,1,rooftop,2551,"Warrenville Rd",,,"Downers Grove",IL,"DuPage County",60515,US,Dupage
"6924 Riverside Drive,Dublin,OH",40.108281,-83.1102,1,rooftop,6924,"Riverside Dr",,,Dublin,OH,"Franklin County",43017,US,Franklin
"7660 Amador Valley Blvd,Dublin,CA",37.706905,-121.933289,1,rooftop,7660,"Amador Valley Blvd",,,Dublin,CA,"Alameda County",94568,US,"Alameda County"
"38 East - West Rd,East Dummerson,VT",0,0,0,,,,,,,,,,,
"111 Plainfield Avenue,Elmont,NY",40.712648,-73.708147,1,rooftop,111,"Plainfield Ave",,,Elmont,NY,"Nassau County",11003,US,"NYS GIS Program Office, State Geographic Information Officer (GIO)"
"9436B Waynesboro Pike,Emmitsburg,MD",39.710109,-77.337097,0.9,rooftop,9436,"Waynesboro Pike",Apt,B,Emmitsburg,MD,"Frederick County",21727,US,Statewide
"2250 S Escondido Boulevard,Escondido,CA",33.094613,-117.07115,1,rooftop,2250,"S Escondido Blvd",,,Escondido,CA,"San Diego County",92025,US,"San Diego Geographic Information Source - JPA"
"3450 E. Valley Parkway,Escondido,CA",33.16119,-117.034273,1,rooftop,3450,"E Valley Pkwy E",,,Escondido,CA,"San Diego County",92027,US,"San Diego Geographic Information Source - JPA"
"5200-592-4753,Exeter,CA",36.344716,-119.088371,0.23,place,,,,,Exeter,CA,"Tulare County",93221,US,"TIGER/Line® dataset from the US Census Bureau"
"1401 Oak Manor Avenue South,Fargo,ND",46.845937,-96.801887,1,rooftop,1401,"Oak Manor Ave S",,,Fargo,ND,"Cass County",58103,US,"City of Fargo"
"2401 North University Drive,Fargo,ND",46.909299,-96.797367,1,rooftop,2401,"University Dr N",,,Fargo,ND,"Cass County",58102,US,"City of Fargo"
"1140 Van Ness Avenue,Ferndale,CA",40.587798,-124.256336,1,rooftop,1140,"Van Ness Ave",,,Ferndale,CA,"Humboldt County",95536,US,"Humboldt County"
"10986 Sierra Avenue,Fontana,CA",34.054358,-117.43605,1,rooftop,10986,"Sierra Ave",,,Fontana,CA,"San Bernardino County",92337,US,"San Bernardino County"
"15042 Summit Avenue,Fontana,CA",34.148426,-117.476651,0.8,nearest_rooftop_match,15032,"Summit Ave",,,Fontana,CA,"San Bernardino County",92336,US,"San Bernardino County"
"10015 Theote Rd,Fort Belvoir,VA",38.68602,-77.144406,1,rooftop,10015,"Theote Rd",,,"Fort Belvoir",VA,"Fairfax County",22060,US,"Virginia Geographic Information Network (VGIN)"
"1601 Campus Delivery,Fort Collins,CO",40.594597,-105.127416,0.33,place,,,,,"Fort Collins",CO,"Larimer County",80521,US,"TIGER/Line® dataset from the US Census Bureau"
"3200 E. Mulberry Street,fort collins,CO",40.581942,-105.018163,1,rooftop,3200,"E Mulberry St",,,"Fort Collins",CO,"Larimer County",80524,US,"City of Fort Collins"
"232 First Street,Fort Lupton,CO",40.079931,-104.815881,1,rooftop,232,"1st St",,,"Fort Lupton",CO,"Weld County",80621,US,Weld
"5824 South Highway 95,Fort Mohave,AZ",34.987336,-114.597863,1,range_interpolation,5824,"State Rte 95",,,"Fort Mohave",AZ,"Mohave County",86426,US,"TIGER/Line® dataset from the US Census Bureau"
"18300 Euclid St,Fountain Valley,CA",33.697378,-117.934203,1,rooftop,18300,"Euclid St",,,"Fountain Valley",CA,"Orange County",92708,US,"Orange County"
"1618 Washington Blvd,Fremont,CA",37.530558,-121.937661,1,rooftop,1618,"Washington Blvd",,,Fremont,CA,"Alameda County",94539,US,"Alameda County"
"1115 E. Champlain,Fresno,CA",36.869607,-119.764069,1,rooftop,1115,"E Champlain Dr",,,Fresno,CA,"Fresno County",93720,US,"Fresno County"
"1411 S. Harbor Blvd,Fullerton,CA",33.857185,-117.926095,1,rooftop,1411,"S Harbor Blvd",,,Fullerton,CA,"Orange County",92832,US,"City of Fullerton"
"951 West Bastanchury Road,Fullerton,CA",33.889591,-117.942327,1,rooftop,951,"W Bastanchury Rd",,,Fullerton,CA,"Orange County",92835,US,"City of Fullerton"
"12750 Garden Grove Blvd,Garden Grove,CA",33.774297,-117.909995,1,rooftop,12750,"Garden Grove Blvd",,,"Garden Grove",CA,"Orange County",92843,US,"City of Garden Grove"
"13200 Euclid St,Garden Grove,CA",33.771079,-117.937295,1,rooftop,13200,"Euclid St",,,"Garden Grove",CA,"Orange County",92843,US,"City of Garden Grove"
"86 W. Juniper Avenue,Gilbert,AZ",33.360088,-111.791686,1,rooftop,86,"W Juniper Ave",,,Gilbert,AZ,"Maricopa County",85233,US,Maricopa
"19555 North 59th Avenue,Glendale,AZ",33.663405,-112.183604,1,rooftop,19555,"N 59th Ave",,,Glendale,AZ,"Maricopa County",85308,US,"City of Glendale"
"1301 E. Gladstone Avenue,Glendora,CA",34.11406,-117.839614,1,range_interpolation,1301,"E Gladstone St",,,Glendora,CA,"Los Angeles County",91740,US,"TIGER/Line® dataset from the US Census Bureau"
"500 S. Glendora Avenue,Glendora,CA",34.13076,-117.86379,1,range_interpolation,500,"S Glendora Ave",,,Glendora,CA,"Los Angeles County",91741,US,"TIGER/Line® dataset from the US Census Bureau"
"500 South Glendora Avenue,Glendora,Ca",34.13076,-117.86379,1,range_interpolation,500,"S Glendora Ave",,,Glendora,CA,"Los Angeles County",91741,US,"TIGER/Line® dataset from the US Census Bureau"
"2514 Grand Avenue,Glenwood Springs,CO",39.529957,-107.325176,1,range_interpolation,2514,"Grand Ave",,,"Glenwood Springs",CO,"Garfield County",81601,US,"TIGER/Line® dataset from the US Census Bureau"
"5 Allen Street,Hampden,MA",42.059121,-72.442264,1,rooftop,5,"Allen St",,,Hampden,MA,"Hampden County",01036,US,"Office of Geographic Information (MassGIS), Commonwealth of Massachusetts, MassIT"
"1685 Garbers Church Road,Harrisonburg,VA",38.43149,-78.915014,1,rooftop,1685,"Garbers Church Rd",,,Rockingham,VA,"Rockingham County",22801,US,"Virginia Geographic Information Network (VGIN)"
"585 Laukapu St,Hilo,HI",19.713268,-155.06705,1,range_interpolation,585,"Laukapu St",,,Hilo,HI,"Hawaii County",96720,US,"TIGER/Line® dataset from the US Census Bureau"
"2864 Hollywood Blvd,Hollywood,FL",26.010571,-80.165183,1,rooftop,2864,"Hollywood Blvd",,,Hollywood,FL,"Broward County",33020,US,Broward
"1048 Koko Head Avenue,Honolulu,HI",21.280098,-157.799278,1,rooftop,1048,"Koko Head Ave",,,Honolulu,HI,"Honolulu County",96816,US,"City of Honolulu"
"4995 West Bellfort,Houston,TX",29.668342,-95.465409,0.6,rooftop,4995,"W Bellfort St",,,Houston,TX,"Harris County",77035,US,"Greater Houston"
"8042 Katy Fwy,Houston,TX",29.785196,-95.481588,1,rooftop,8042,"Katy Fwy",,,Houston,TX,"Harris County",77024,US,Harris
"113 20th Street,Huntington Beach,CA",33.667245,-118.014584,1,rooftop,113,"20th St",,,"Huntington Beach",CA,"Orange County",92648,US,"City of Huntington Beach"
"15021 Edwards Street,Huntington Beach,CA",33.743783,-118.016152,1,rooftop,15021,"Edwards St",,,"Huntington Beach",CA,"Orange County",92647,US,"City of Huntington Beach"
"5425 Victory Drive,Indianapolis,IN",39.701394,-86.074228,1,rooftop,5425,"Victory Dr",,,Indianapolis,IN,"Marion County",46203,US,Statewide
"1371 Reynolds Avenue,Irvine,CA",33.696765,-117.854932,1,rooftop,1371,"Reynolds Ave",,,Irvine,CA,"Orange County",92614,US,"Orange County"
"3444 Sputhside Blvd Suite,Jacksonville,FL",30.337538,-81.768622,0.33,place,,,Ste,JACKSONVILLE,Jacksonville,FL,"Duval County",32099,US,"TIGER/Line® dataset from the US Census Bureau"
"4340 N. Roan Street,Johnson City,TN",36.380784,-82.407832,1,rooftop,4340,"N Roan St",,,"Johnson City",TN,"Washington County",37601,US,"City of Johnson City"
"5232 Jackson Drive,La Mesa,CA",32.774749,-117.011047,1,range_interpolation,5232,"Jackson Dr",,,"La Mesa",CA,"San Diego County",91942,US,"TIGER/Line® dataset from the US Census Bureau"
"5232 Jackson Drive Suite 105,La Mesa,CA",32.774749,-117.011047,1,range_interpolation,5232,"Jackson Dr",Ste,105,"La Mesa",CA,"San Diego County",91942,US,"TIGER/Line® dataset from the US Census Bureau"
"460 Forest Avenue,Laguna Beach,CA",33.545351,-117.781673,1,rooftop,460,"Forest Ave",,,"Laguna Beach",CA,"Orange County",92651,US,"Orange County"
"24801 Raton Drive,Lake Forest,CA",33.624517,-117.696327,1,rooftop,24801,"Raton Dr",,,"Lake Forest",CA,"Orange County",92630,US,"City of Lake Forest"
"5850 Brannen Road S.,Lakeland,Fl",27.958781,-81.957837,1,rooftop,5850,"Brannen Rd S",,,Lakeland,FL,"Polk County",33813,US,Polk
"838 River Avenue,Lakewood,NJ",40.066166,-74.219192,1,rooftop,838,"River Ave",,,Lakewood,NJ,"Ocean County",08701,US,"NJ Office of Information Technology (NJOIT), Office of Geographic Information Systems (OGIS)"
"3605 Desert Inn. Road,Las Vegas,NV",36.129494,-115.096596,0.8,range_interpolation,3605,"E Desert Inn Rd",,,"Las Vegas",NV,"Clark County",89121,US,"TIGER/Line® dataset from the US Census Bureau"
"5000 N Jones Blvd,Las Vegas,NV",36.248134,-115.225563,1,range_interpolation,5000,"N Jones Blvd",,,"Las Vegas",NV,"Clark County",89130,US,"TIGER/Line® dataset from the US Census Bureau"
"5051 W. Craig Road,Las Vegas,NV",36.238215,-115.211672,1,rooftop,5051,"W Craig Rd",,,"Las Vegas",NV,"Clark County",89130,US,"Las Vegas"
"2700 Lake Vista Drive,Lewisville,TX",32.996,-96.9654,1,rooftop,2700,"Lake Vista Dr",,,Lewisville,TX,"Denton County",75067,US,"City of Lewisville"
"4250 Iron Works Pike,Lexington,KY",38.144038,-84.526182,1,rooftop,4250,"Iron Works Pike",,,Lexington,KY,"Fayette County",40511,US,"Lexington Fayette"
"5929 East Spring St,Long Beach,CA",33.811609,-118.115802,1,rooftop,5929,"E Spring St",,,"Long Beach",CA,"Los Angeles County",90808,US,"City of Long Beach"
"3901 Sierra College Blvd,Loomis,CA",38.814389,-121.208046,1,rooftop,3901,"Sierra College Blvd",,,Loomis,CA,"Placer County",95650,US,"County of Placer"
"4470 El Camino Road,Los Altos,CA",37.40178,-122.115697,0.5,rooftop,4470,"El Camino Real",,,"Los Altos",CA,"Santa Clara County",94022,US,"City of Palo Alto"
"10737 Venice Blvd,Los Angeles,CA",34.018413,-118.408061,1,range_interpolation,10737,"Venice Blvd",,,"Los Angeles",CA,"Los Angeles County",90034,US,"TIGER/Line® dataset from the US Census Bureau"
"11718 West Olympic Blvd,Los Angeles,CA",34.034187,-118.448195,1,range_interpolation,11718,"W Olympic Blvd",,,"Los Angeles",CA,"Los Angeles County",90064,US,"TIGER/Line® dataset from the US Census Bureau"
"1535 South Sepulveda Blvd,Los Angeles,CA",34.048308,-118.445165,1,range_interpolation,1535,"S Sepulveda Blvd",,,"Los Angeles",CA,"Los Angeles County",90025,US,"TIGER/Line® dataset from the US Census Bureau"
"1900 S. Sepulveda Blvd,Los Angeles,CA",34.04447,-118.4413,1,rooftop,1900,"S Sepulveda Blvd",,,"Los Angeles",CA,"Los Angeles County",90025,US,"City of Los Angeles"
"4641 Colorado Blvd,Los Angeles,CA",34.14099,-118.2739,1,rooftop,4641,"Colorado Blvd",,,"Los Angeles",CA,"Los Angeles County",90039,US,"Los Angeles County"
"6565 Santa Monica Blvd,Los Angeles,CA",34.090862,-118.332624,1,rooftop,6565,"Santa Monica Blvd",,,"Los Angeles",CA,"Los Angeles County",90038,US,"Los Angeles County"
"201 W. 67th Ct,Loveland,CO",40.461593,-105.078274,1,rooftop,201,"W 67th Ct",,,Loveland,CO,"Larimer County",80538,US,"City of Loveland"
"4716B Lincoln Blvd,Marina del Rey,CA",33.98014,-118.438257,0.9,rooftop,4716,"Lincoln Blvd",Apt,B,"Marina Del Rey",CA,"Los Angeles County",90292,US,"Los Angeles County"
"4816 Lincoln Blvd,Marina Del Rey,CA",33.97838,-118.435952,1,rooftop,4816,"Lincoln Blvd",,,"Marina Del Rey",CA,"Los Angeles County",90292,US,"Los Angeles County"
"401 W. Nolana Avenue,McAllen,TX",26.238356,-98.209942,0.8,rooftop,401,"E Nolana Ave",,,McAllen,TX,"Hidalgo County",78504,US,"Hidalgo County"
"14405 Conneaut Lake Road,Meadville,PA",41.622251,-80.180193,1,range_interpolation,14405,"Conneaut Lake Rd",,,Meadville,PA,"Crawford County",16335,US,"TIGER/Line® dataset from the US Census Bureau"
"30406 Haun Road Ste 730,Menifee,Ca",33.679257,-117.175087,1,rooftop,30406,"Haun Rd",Ste,730,Menifee,CA,"Riverside County",92584,US,Riverside
"800 W. Overland Road,Meridian,ID",43.59061,-116.403347,1,rooftop,800,"W Overland Rd",,,Meridian,ID,"Ada County",83642,US,"City of Boise"
"1648 North Country Club Drive,Mesa,AZ",33.445223,-111.840069,1,rooftop,1648,"N Country Club Dr",,,Mesa,AZ,"Maricopa County",85201,US,"City of Mesa"
"1000 NW 27th Avenue,Miami,Fl",25.782315,-80.239694,1,rooftop,1000,"NW 27th Ave",,,Miami,FL,"Miami-Dade County",33125,US,"Miami-Dade County"
"36 Three Mile Bridge Road,Middlesex,TX",0,0,0,,,,,,,,,,,
"21503 South State Hwy 29,Middletown,CA",38.744484,-122.621793,1,range_interpolation,21503,"State Hwy 29",,,Middletown,CA,"Lake County",95461,US,"TIGER/Line® dataset from the US Census Bureau"
"308 W 7200 S,Midvale,UT",40.621087,-111.900328,1,rooftop,308,"W 7200 S",,,Midvale,UT,"Salt Lake County",84047,US,"Utah AGRC (and individual UT counties)"
"4224 Northern Pike,Monroeville,PA",40.433016,-79.757371,1,rooftop,4224,"Northern Pike",,,Monroeville,PA,"Allegheny County",15146,US,Allegheny
"745 W. Huntington Drive,Monrovia,CA",34.140409,-118.014997,1,range_interpolation,745,"W Huntington Dr",,,Monrovia,CA,"Los Angeles County",91016,US,"TIGER/Line® dataset from the US Census Bureau"
"5405 Arrow Hwy Ste. 108,Montclair,CA",34.091671,-117.686923,1,rooftop,5405,"Arrow Hwy",Ste,108,Montclair,CA,"San Bernardino County",91763,US,"San Bernardino County"
"18990 McCowan Rd,Mount Albert, Ontario,ON",34.05936,-117.6203,0.33,place,,,,,Ontario,CA,"San Bernardino County",91758,US,"TIGER/Line® dataset from the US Census Bureau"
"801 Centerton Road,Mount Laurel,NJ",39.993492,-74.879749,1,rooftop,801,"Centerton Rd",,,"Mount Laurel",NJ,"Burlington County",08054,US,"NJ Office of Information Technology (NJOIT), Office of Geographic Information Systems (OGIS)"
"16080 Equine Drive,Nampa,ID",43.606212,-116.504626,1,rooftop,16080,"Equine Dr",,,Nampa,ID,"Canyon County",83687,US,Canyon
"2971 Sidco Drive,Nashville,TN",36.103793,-86.756322,1,range_interpolation,2971,"Sidco Dr",,,Nashville,TN,"Davidson County",37204,US,"TIGER/Line® dataset from the US Census Bureau"
"6999 Highway 6,Navasota,TX",30.411996,-96.094951,1,rooftop,6999,"State Highway 6",,,Navasota,TX,"Grimes County",77868,US,Grimes
"310 Cedar Street,New Haven,CT",41.301857,-72.933669,1,range_interpolation,310,"Cedar St",,,"New Haven",CT,"New Haven County",06519,US,"TIGER/Line® dataset from the US Census Bureau"
"1125 General Ogden,New Orleans,LA",29.952326,-90.136656,1,rooftop,1125,"General Ogden St",,,"New Orleans",LA,"Orleans Parish",70118,US,"Orleans Parish"
"510 East 62nd Street,New York,NY",40.76023,-73.957891,1,rooftop,510,"E 62nd St",,,"New York",NY,"New York County",10065,US,"City of New York"
"2025 N Street,Newman,CA",37.307922,-121.018636,1,rooftop,2025,"N St",,,Newman,CA,"Stanislaus County",95360,US,"Stanislaus County"
"3720 Campus Drive,Newport Beach,CA",33.663128,-117.873956,1,rooftop,3720,"Campus Dr",,,"Newport Beach",CA,"Orange County",92660,US,"City of Newport Beach"
"9804 Warwick Blvd,Newport News,VA",37.026829,-76.455508,1,rooftop,9804,"Warwick Blvd",,,"Newport News",VA,"Newport News city",23601,US,"City of Newport News"
"875 6th Street,Norco,CA",33.938571,-117.540417,1,range_interpolation,875,"6th St",,,Norco,CA,"Riverside County",92860,US,"TIGER/Line® dataset from the US Census Bureau"
"200 Westboro Road,North Grafton,MA",42.246506,-71.677088,1,rooftop,200,"Westboro Rd",,,"North Grafton",MA,"Worcester County",01536,US,"Office of Geographic Information (MassGIS), Commonwealth of Massachusetts, MassIT"
"16911 Roscoe Blvd,North Hills,CA",34.221355,-118.501256,1,range_interpolation,16911,"Roscoe Blvd",,,Northridge,CA,"Los Angeles County",91343,US,"TIGER/Line® dataset from the US Census Bureau"
"11057 Rosecrans Avenue,Norwalk,CA",33.902658,-118.098023,1,rooftop,11057,"Rosecrans Ave",,,Norwalk,CA,"Los Angeles County",90650,US,"Los Angeles County"
"123 West Cedar Street,Norwalk,CT",41.10516,-73.431611,1,rooftop,123,"W Cedar St",,,Norwalk,CT,"Fairfield County",06854,US,"City of Norwalk"
"11536 Cleveland Avenue,Oakdale,CA",37.805137,-120.886217,1,rooftop,11536,"Cleveland Ave",,,Oakdale,CA,"Stanislaus County",95361,US,"Stanislaus County"
"1133 7th Street,Oakland,CA",37.803461,-122.287996,1,rooftop,1133,"7th St",,,Oakland,CA,"Alameda County",94607,US,"Alameda County"
"4747 SW 60th Avenue,Ocala,FL",29.141404,-82.216889,1,rooftop,4747,"SW 60th Ave",,,Ocala,FL,"Marion County",34474,US,Marion
"655 Benet Road,Oceanside,CA",33.213921,-117.357744,1,rooftop,655,"Benet Rd",,,Oceanside,CA,"San Diego County",92058,US,"San Diego Geographic Information Source - JPA"
"2409 S. Vineyard Avenue,Ontario,CA",34.029291,-117.609079,1,rooftop,2409,"S Vineyard Ave",,,Ontario,CA,"San Bernardino County",91761,US,"San Bernardino County"
"4120-B E 4th St,Ontario,CA",34.075917,-117.56314,0.9,rooftop,4120,"E 4th St",Apt,-B,Ontario,CA,"San Bernardino County",91764,US,"San Bernardino County"
"200 S. Tustin Street,Orange,CA",33.785911,-117.83616,1,rooftop,200,"S Tustin St",,,Orange,CA,"Orange County",92866,US,"City of Orange"
"2638 N Tustin St,Orange,CA",33.833127,-117.836634,1,rooftop,2638,"N Tustin St",,,Orange,CA,"Orange County",92865,US,"City of Orange"
"8555 Curry Ford Road,Orlando,FL",28.51069,-81.267567,1,rooftop,8555,"Curry Ford Rd",,,Orlando,FL,"Orange County",32825,US,Loveland
"11950 W. 110th Street,Overland Park,KS",38.930485,-94.725176,1,rooftop,11950,"W 110th St",,,"Overland Park",KS,"Johnson County",66210,US,"City of Olathe"
"25 Weber Lane,Oxford,PA",39.849721,-75.957276,0.33,place,,,,,Oxford,PA,"Chester County",19363,US,"TIGER/Line® dataset from the US Census Bureau"
"4299 E. Ramon Road,Palm Springs,CA",33.815724,-116.499617,1,range_interpolation,4299,"E Ramon Rd",,,"Palm Springs",CA,"Riverside County",92264,US,"TIGER/Line® dataset from the US Census Bureau"
"39450 3rd St Est,Palmdale,CA",34.599047,-118.124707,0.9,rooftop,39450,"3rd St E",,,Palmdale,CA,"Los Angeles County",93550,US,"Los Angeles County"
"580 Winters Avenue,Paramus,NJ",40.959837,-74.071801,1,rooftop,580,"Winters Ave",,,Paramus,NJ,"Bergen County",07652,US,"NJ Office of Information Technology (NJOIT), Office of Geographic Information Systems (OGIS)"
"2121 E. Foothill Blvd,Pasadena,CA",34.149894,-118.106625,1,rooftop,2121,"E Foothill Blvd",,,Pasadena,CA,"Los Angeles County",91107,US,"Los Angeles County"
"2204 E Foothill Blvd,Pasadena,CA",34.149245,-118.104929,1,rooftop,2204,"E Foothill Blvd",,,Pasadena,CA,"Los Angeles County",91107,US,"Los Angeles County"
"2204 E. Foothill Blvd,Pasadena,CA",34.149245,-118.104929,1,rooftop,2204,"E Foothill Blvd",,,Pasadena,CA,"Los Angeles County",91107,US,"Los Angeles County"
"361 S. Raymond Avenue,Pasadena,CA",34.13964,-118.149251,1,rooftop,361,"S Raymond Ave",,,Pasadena,CA,"Los Angeles County",91105,US,"Los Angeles County"
"94-1254 Kaahumanu Street,Pearl City,HI",21.3901,-157.953339,0.9,range_interpolation,94,"Kaahumanu St",,,"Pearl City",HI,"Honolulu County",96782,US,"TIGER/Line® dataset from the US Census Bureau"
"2973 Penryn Road,Penryn,CA",38.840289,-121.166952,1,rooftop,2973,"Penryn Rd",,,Penryn,CA,"Placer County",95663,US,"County of Placer"
"3800 Spruce St,Philadelphia,PA",39.950752,-75.200096,1,rooftop,3800,"Spruce St",,,Philadelphia,PA,"Philadelphia County",19104,US,Philadelphia
"3070 Temple Avenue,Phillips Ranch,CA",0,0,0,,,,,,,,,,,
"34705 N. 14th Street,Phoenix,AZ",33.80047,-112.051207,0.9,rooftop,34705,"N 14th St",,,Phoenix,AZ,"Maricopa County",85086,US,Maricopa
"163 South Service Road,Plainview,NY",40.785625,-73.449304,1,rooftop,163,"S Service Rd",,,Plainview,NY,"Nassau County",11803,US,"NYS GIS Program Office, State Geographic Information Officer (GIO)"
"16 Lewyt Street,Port Washington,NY",40.826447,-73.68547,1,range_interpolation,16,"Lewyt St",,,"Port Washington",NY,"Nassau County",11050,US,"TIGER/Line® dataset from the US Census Bureau"
"3411 Airport Rd,Portage,IN",41.55323,-87.162862,1,rooftop,3411,"Airport Rd",,,Portage,IN,"Porter County",46368,US,Porter
"13830 SE Stark St,Portland,OR",45.518731,-122.521438,1,rooftop,13830,"SE Stark St",,,Portland,OR,"Multnomah County",97233,US,Portland
"1075 Westfield Avenue,Rahway,NJ",40.615976,-74.291013,1,range_interpolation,1075,"Westfield Ave",,,Rahway,NJ,"Union County",07065,US,"TIGER/Line® dataset from the US Census Bureau"
"1060 William Moore Drive,Raleigh,NC",35.797594,-78.700396,1,rooftop,1060,"William Moore Dr",,,Raleigh,NC,"Wake County",27607,US,Cary
"10940 Foothill Blvd,Rancho Cucamonga,CA",34.108171,-117.565276,1,rooftop,10940,"Foothill Blvd",,,"Rancho Cucamonga",CA,"San Bernardino County",91730,US,"City of Rancho Cucamonga"
"11780 Arrow Route,Rancho Cucamonga,CA",34.099492,-117.54867,1,rooftop,11780,"Arrow Rte",,,"Rancho Cucamonga",CA,"San Bernardino County",91730,US,"City of Rancho Cucamonga"
"6523 Helen Woodward Way,Rancho Santa Fe,CA",32.995885,-117.195389,0.82,nearest_rooftop_match,6525,"Helen Woodward Way",,,"Rancho Santa Fe",CA,"San Diego County",92067,US,"San Diego Geographic Information Source - JPA"
"6525 Helen Woodward Way,Rancho Santa Fe,CA",32.995885,-117.195389,1,rooftop,6525,"Helen Woodward Way",,,"Rancho Santa Fe",CA,"San Diego County",92067,US,"San Diego Geographic Information Source - JPA"
"2505 Hilltop Drive,Redding,CA",40.571957,-122.357526,1,rooftop,2505,"Hilltop Dr",,,Redding,CA,"Shasta County",96002,US,"Shasta County"
"2072 W Redlands Blvd,Redlands,CA",34.065306,-117.225782,1,rooftop,2072,"W Redlands Blvd",,,Redlands,CA,"San Bernardino County",92373,US,"San Bernardino County"
"541 N. Pacific Coast Highway,Redondo Beach,CA",33.85095,-118.389669,1,rooftop,541,"N Highway 1",,,"Redondo Beach",CA,"Los Angeles County",90277,US,"Los Angeles County"
"701 S Pacific Coast Hwy,Redondo Beach,CA",33.830676,-118.385412,1,rooftop,701,"S Highway 1",,,"Redondo Beach",CA,"Los Angeles County",90277,US,"Los Angeles County"
"934 Charter St,Redwood City,CA",37.485403,-122.211186,1,rooftop,934,"Charter St",,,"Redwood City",CA,"San Mateo County",94063,US,"San Mateo County"
"555 Morrill Avenue,Reno,NV",39.534291,-119.80246,1,rooftop,555,"Morrill Ave",,,Reno,NV,"Washoe County",89512,US,Washoe
"26 Losee Lane,Rhinebeck,NY",41.95699,-73.890394,1,rooftop,26,"Losee Ln",,,Rhinebeck,NY,"Dutchess County",12572,US,"NYS GIS Program Office, State Geographic Information Officer (GIO)"
"5488 Mission Blvd,Riverside,CA",33.995102,-117.403835,1,rooftop,5488,"Mission Blvd",,,"Jurupa Valley",CA,"Riverside County",92509,US,Riverside
"315 Robbinsville-Allentown Road,Robbinsville,NJ",40.19395,-74.594122,1,rooftop,315,"Robbinsville Allentown Rd",,,Trenton,NJ,"Mercer County",08691,US,"NJ Office of Information Technology (NJOIT), Office of Geographic Information Systems (OGIS)"
"115 E. Old Settlers Blvd,Round Rock,CA",30.533596,-97.684303,0.6,rooftop,115,"E Old Settlers Blvd",,,"Round Rock",TX,"Williamson County",78664,US,Capcog
"9801 Old Winery Place,Sacramento,CA",38.574246,-121.330901,1,rooftop,9801,"Old Winery Pl",,,Sacramento,CA,"Sacramento County",95827,US,"Secramento County"
"15881 Toro Hills Avenue,Salinas,CA",36.606847,-121.697122,1,rooftop,15881,"Toro Hills Ave",,,Salinas,CA,"Monterey County",93908,US,"Monterey County"
"16201 San Pedro Avenue,San Antonio,TX",29.590832,-98.47388,1,range_interpolation,16201,"San Pedro Ave",,,"San Antonio",TX,"Bexar County",78232,US,"TIGER/Line® dataset from the US Census Bureau"
"503 E. Sonterra Blvd,San Antonio,TX",29.616246,-98.486287,1,rooftop,503,"E Sonterra Blvd",,,"San Antonio",TX,"Bexar County",78258,US,"San Antonio"
"6488 N. New Braunfels Avenue,San Antonio,TX",29.490056,-98.458471,1,rooftop,6488,"N New Braunfels Ave",,,"San Antonio",TX,"Bexar County",78209,US,"San Antonio"
"10435 Sorrento Valley Road ,San Diego,CA",32.894971,-117.216244,1,rooftop,10435,"Sorrento Valley Rd",,,"San Diego",CA,"San Diego County",92121,US,"San Diego Geographic Information Source - JPA"
"2317 Hotel Circle South,San Diego,CA",32.758671,-117.184436,1,rooftop,2317,"Hotel Cir S",,,"San Diego",CA,"San Diego County",92108,US,"San Diego Geographic Information Source - JPA"
"3817 Adams Avenue,San Diego,CA",32.763008,-117.111636,1,rooftop,3817,"Adams Ave",,,"San Diego",CA,"San Diego County",92116,US,"San Diego Geographic Information Source - JPA"
"5267 Linda Vista Road,San Diego,CA",32.766336,-117.195607,1,rooftop,5267,"Linda Vista Rd",,,"San Diego",CA,"San Diego County",92110,US,"San Diego Geographic Information Source - JPA"
"5610 Kearney Mesa Road,San Diego,CA",32.837187,-117.139079,1,rooftop,5610,"Kearny Mesa Rd",,,"San Diego",CA,"San Diego County",92111,US,"San Diego Geographic Information Source - JPA"
"6030-A Santo Road,San Diego,CA",32.839422,-117.097828,0.9,range_interpolation,6030,"Santo Rd",Apt,-A,"San Diego",CA,"San Diego County",92124,US,"TIGER/Line® dataset from the US Census Bureau"
"7160 Santa Teresa Boulevard,San Jose,CA",37.226137,-121.774486,1,rooftop,7160,"Santa Teresa Blvd",,,"San Jose",CA,"Santa Clara County",95139,US,"Santa Clara County"
"14790 Washington Avenue,San Leandro,CA",37.697125,-122.138877,1,rooftop,14790,"Washington Ave",,,"San Leandro",CA,"Alameda County",94578,US,"Alameda County"
"3973 S. Higuera Street,San Luis Obispo,CA",35.24547,-120.674014,1,rooftop,3973,"S Higuera St",,,"San Luis Obispo",CA,"San Luis Obispo County",93401,US,"San Luis Obispo County"
"2055 Montiel Road Suite ,San Marcos,CA",33.132251,-117.117887,1,range_interpolation,2055,"Montiel Rd",Ste,SAN,"San Marcos",CA,"San Diego County",92069,US,"TIGER/Line® dataset from the US Census Bureau"
"3141 N. Twin Oaks Valley Road,San Marcos,CA",33.198506,-117.165749,1,rooftop,3141,"N Twin Oaks Valley Rd",,,"San Marcos",CA,"San Diego County",92069,US,"San Diego Geographic Information Source - JPA"
"301 E. Haley St,Santa Barbara,CA",34.420296,-119.692237,1,rooftop,301,"E Haley St",,,"Santa Barbara",CA,"Santa Barbara County",93101,US,"Santa Barbara County"
"24899 Railroad Avenue,Santa Clarita,CA",34.387931,-118.534138,0.9,rooftop,24899,"Railroad Ave",,,Newhall,CA,"Los Angeles County",91321,US,"Los Angeles County"
"2425 Mendocino Avenue,Santa Rosa,CA",38.464467,-122.719438,1,rooftop,2425,"Mendocino Ave",,,"Santa Rosa",CA,"Sonoma County",95403,US,"Sonoma County"
"22595 N Scottsdale Rd,Scottsdale,AZ",33.690969,-111.924585,1,rooftop,22595,"N Scottsdale Rd",,,Scottsdale,AZ,"Maricopa County",85255,US,Maricopa
"7410 E. Pinnacle Peak Road,Scottsdale,AZ",33.699482,-111.920913,1,rooftop,7410,"E Pinnacle Peak Rd",,,Scottsdale,AZ,"Maricopa County",85255,US,Maricopa
"335 Route 35,Selinsgrove,PA",40.785723,-76.86933,1,rooftop,335,"State Rte 35",,,Selinsgrove,PA,"Snyder County",17870,US,Snyder
"13624 Moorpark Street,Sherman Oaks,CA",34.150225,-118.430445,1,rooftop,13624,"Moorpark St",,,"Sherman Oaks",CA,"Los Angeles County",91423,US,"Los Angeles County"
"4560 Sherman Oaks Avenue,Sherman Oaks,CA",34.15361,-118.468877,1,rooftop,4560,"Sherman Oaks Ave",,,"Sherman Oaks",CA,"Los Angeles County",91403,US,"Los Angeles County"
"640 Sicklerville Rd,Sicklerville,NJ",39.731996,-74.993346,1,rooftop,640,"Sicklerville Rd",,,Sicklerville,NJ,"Camden County",08081,US,"NJ Office of Information Technology (NJOIT), Office of Geographic Information Systems (OGIS)"
"11308 92nd St SE,Snohomish,WA",47.911104,-122.079472,1,rooftop,11308,"92nd St SE",,,Snohomish,WA,"Snohomish County",98290,US,"Snohomish County"
"4310 Sand Canyon Rd,Somis,CA",34.274105,-118.973048,1,rooftop,4310,"Sand Canyon Rd",,,Somis,CA,"Ventura County",93066,US,"Ventura County"
"3737 Tweedy Blvd,South Gate,CA",33.94435,-118.204344,1,rooftop,3737,"Tweedy Blvd",,,"South Gate",CA,"Los Angeles County",90280,US,"Los Angeles County"
"1412 Huntington Drive,South Pasadena,CA",34.10414,-118.152268,1,range_interpolation,1412,"Huntington Dr",,,"South Pasadena",CA,"Los Angeles County",91030,US,"TIGER/Line® dataset from the US Census Bureau"
"1646 Spring Cypress Road,Spring,TX",30.073114,-95.440186,1,range_interpolation,1646,"Spring Cypress Rd",,,Spring,TX,"Harris County",77388,US,"TIGER/Line® dataset from the US Census Bureau"
"103 W. Q Street,Springfield,OR",44.06189,-123.027674,1,rooftop,103,"W Q St",,,Springfield,OR,"Lane County",97477,US,Lane
"6651Backlick Road,Springfield,VA",38.774517,-77.183501,1,rooftop,6651,"Backlick Rd",,,Springfield,VA,"Fairfax County",22150,US,Fairfax
"1014 Dale St N,Saint Paul,MN",44.971837,-93.126167,1,rooftop,1014,"Dale St N",,,"Saint Paul",MN,"Ramsey County",55117,US,Ramsey
"10550 Western Avenue,Stanton,CA",33.807913,-117.998633,1,rooftop,10550,"Western Ave",,,Stanton,CA,"Orange County",90680,US,"Orange County"
"1518 West Colelge Avenue,State College,PA",40.77893,-77.841359,0.33,place,,,,,"State College",PA,"Centre County",16801,US,"TIGER/Line® dataset from the US Census Bureau"
"390 State St,Sunbury,PA",40.859358,-76.768978,1,rooftop,390,"State St",,,Sunbury,PA,"Northumberland County",17801,US,Northumberland
"2701 N. Monroe St,Tallahassee,FL",30.47829,-84.298833,1,rooftop,2701,"N Monroe St",,,Tallahassee,FL,"Leon County",32303,US,Leon
"39564 US 19 N,Tarpon Springs,FL",28.131766,-82.741002,1,rooftop,39564,"US Highway 19 N",,,"Tarpon Springs",FL,"Pinellas County",34689,US,"Pinellas County"
"2500 South Hardy,Tempe,AZ",33.401852,-111.952716,1,rooftop,2500,"S Hardy Dr",,,Tempe,AZ,"Maricopa County",85282,US,Maricopa
"1015 Evergreen Circle,The Woodlands,TX",30.168464,-95.463219,1,rooftop,1015,"Evergreen Cir",,,Spring,TX,"Montgomery County",77380,US,Montgomery
"662 Commerce Street,Thornwood,NY",41.116534,-73.786381,1,range_interpolation,662,"Commerce St",,,Thornwood,NY,"Westchester County",10594,US,"TIGER/Line® dataset from the US Census Bureau"
"2967 N. Moorpark Road,Thousand Oaks,CA",34.220191,-118.868929,1,rooftop,2967,"N Moorpark Rd",,,"Thousand Oaks",CA,"Ventura County",91360,US,"Ventura County"
"3580 Willow Lane,Thousand Oaks,CA",34.162343,-118.8338,1,rooftop,3580,"Willow Ln",,,"Thousand Oaks",CA,"Ventura County",91361,US,"Ventura County"
"760 E. Thousand Oaks Blvd,Thousand Oaks,CA",34.17904,-118.864089,1,rooftop,760,"E Thousand Oaks Blvd",,,"Thousand Oaks",CA,"Ventura County",91360,US,"Ventura County"
"3934 Frontage Rd,Three Forks,MT",45.889538,-111.458686,1,rooftop,3934,"Frontage Rd",,,"Three Forks",MT,"Gallatin County",59752,US,"Montana State Library"
"197 Hance Avenue,Tinton Falls,NJ",40.3297,-74.082954,1,rooftop,197,"Hance Ave",,,"Tinton Falls",NJ,"Monmouth County",07724,US,Monmouth
"One Pine Street,Tinton Falls,NJ",40.304277,-74.100419,0.9,place,,,,,"Tinton Falls",NJ,"Monmouth County",07724,US,"TIGER/Line® dataset from the US Census Bureau"
"22231 S Vermont Avenue,Torrance,CA",33.824851,-118.290518,1,rooftop,22231,"S Vermont Ave",,,Torrance,CA,"Los Angeles County",90502,US,"Los Angeles County"
"24260 Crenshaw Blvd,Torrance,CA",33.804192,-118.327613,1,rooftop,24260,"Crenshaw Blvd",,,Torrance,CA,"Los Angeles County",90505,US,"Los Angeles County"
"2551 W 190th St,Torrance,CA",33.858495,-118.320855,1,range_interpolation,2551,"W 190th St",,,Torrance,CA,"Los Angeles County",90504,US,"TIGER/Line® dataset from the US Census Bureau"
"5408 South 12th Avenue,Tucson,AZ",32.153961,-110.978116,1,rooftop,5408,"S 12th Ave",,,Tucson,AZ,"Pima County",85706,US,Pima
"861 N. Blackstone St,Tulare,CA",36.220346,-119.332522,1,rooftop,861,"N Blackstone St",,,Tulare,CA,"Tulare County",93274,US,Tulare
"1082 Bryan Avenue,Tustin,CA",33.742761,-117.815558,1,rooftop,1082,"Bryan Ave",,,Tustin,CA,"Orange County",92780,US,"Orange County"
"2965 Edinger Avenue,Tustin,CA",33.706946,-117.807098,1,range_interpolation,2965,"Edinger Ave",,,Tustin,CA,"Orange County",92780,US,"TIGER/Line® dataset from the US Census Bureau"
"3021 Edinger Avenue,Tustin,CA",33.706171,-117.806709,1,range_interpolation,3021,"Edinger Ave",,,Tustin,CA,"Orange County",92780,US,"TIGER/Line® dataset from the US Census Bureau"
"2 Metully Lane,Twin Bridges,MT",45.508691,-112.293498,1,rooftop,2,"Metully Ln",,,"Twin Bridges",MT,"Madison County",59754,US,"Montana State Library"
"10 W. 7th Street,Upland,CA",34.088581,-117.651645,1,rooftop,10,"W 7th St",,,Upland,CA,"San Bernardino County",91786,US,"San Bernardino County"
"281 North Central Avenue,Upland,CA",34.096953,-117.69048,1,rooftop,281,"N Central Ave",,,Upland,CA,"San Bernardino County",91786,US,"San Bernardino County"
"2001 S. Lincoln Avenue,Urbana,IL",40.093172,-88.220842,1,rooftop,2001,"S Lincoln Ave",,,Urbana,IL,"Champaign County",61802,US,Champaign
"893 Expo Bouleverd,Vancouver,BC",45.678996,-122.720499,0.33,place,,,,,Vancouver,WA,"Clark County",98660,US,"TIGER/Line® dataset from the US Census Bureau"
"1325 Lexington Road,Versailles,KY",38.050798,-84.713963,0.6,street_center,,"Lexington Rd",,,Versailles,KY,"Woodford County",40383,US,"TIGER/Line® dataset from the US Census Bureau"
"140 Park Street SE,Vienna,VA",38.902481,-77.261114,1,rooftop,140,"Park St SE",,,Vienna,VA,"Fairfax County",22180,US,Fairfax
"364 S. Independence Blvd,Virginia Beach,VA",36.830147,-76.135993,1,rooftop,364,"S Independence Blvd",,,"Virginia Beach",VA,"Virginia Beach city",23452,US,"Virginia Beach"
"5229 W. Walnut Avenue,Visalia,CA",36.312625,-119.348089,1,range_interpolation,5229,"W Walnut Ave",,,Visalia,CA,"Tulare County",93277,US,"TIGER/Line® dataset from the US Census Bureau"
"2803 Ygnacio Valley Road,Walnut Creek,CA",37.925585,-122.017913,1,rooftop,2803,"Ygnacio Valley Rd",,,"Walnut Creek",CA,"Contra Costa County",94598,US,"City of Walnut Creek"
"2991 W Interstate 20,Weatherford,TX",32.754142,-97.707874,1,range_interpolation,2991,"E I-20",,,Weatherford,TX,"Parker County",76086,US,"TIGER/Line® dataset from the US Census Bureau"
"13125 Southfields Road,Wellington,FL",26.635628,-80.25328,1,rooftop,13125,"Southfields Rd",,,Wellington,FL,"Palm Beach County",33414,US,"Palm Beach County"
"7837 6th Street,Wellington,CO",40.699204,-105.001077,1,rooftop,7837,"6th St",,,Wellington,CO,"Larimer County",80549,US,"Larimer County"
"8723 Santa Monica Blvd,West Hollywood,CA",34.087451,-118.380796,1,range_interpolation,8723,"Santa Monica Blvd",,,"West Hollywood",CA,"Los Angeles County",90069,US,"TIGER/Line® dataset from the US Census Bureau"
"3081 South 5600 West,West Valley,UT",40.704207,-112.022188,1,rooftop,3081,"S 5600 W",,,"West Valley City",UT,"Salt Lake County",84120,US,"Utah AGRC (and individual UT counties)"
"609-5 Cantiague Rock Road,Westbury,NY",40.765491,-73.550611,1,range_interpolation,609,"Cantiague Rock Rd",Apt,-5,Westbury,NY,"Nassau County",11590,US,"TIGER/Line® dataset from the US Census Bureau"
"835 Carman Avenue,Westbury,NY",40.74717,-73.553085,1,rooftop,835,"Carman Ave",,,Westbury,NY,"Nassau County",11590,US,"NYS GIS Program Office, State Geographic Information Officer (GIO)"
"100 Littleton Road,Westford,MA",42.570417,-71.409531,1,rooftop,100,"Littleton Rd",,,Westford,MA,"Middlesex County",01886,US,"Office of Geographic Information (MassGIS), Commonwealth of Massachusetts, MassIT"
"10 W. Loop Road,Wheaton,IL",41.833882,-88.104386,1,range_interpolation,10,"W Loop Rd",,,Wheaton,IL,"DuPage County",60187,US,"TIGER/Line® dataset from the US Census Bureau"
"12116 E. Washington Blvd,Whittier,CA",33.967483,-118.053614,1,rooftop,12116,"E Washington Blvd",,,Whittier,CA,"Los Angeles County",90606,US,"City of Whittier"
"35951 Salida Del Sol,Wildomar,CA",33.599022,-117.23323,1,rooftop,35951,"Salida Del Sol",,,Wildomar,CA,"Riverside County",92595,US,Riverside
"200 Commerce St,Williston,VT",44.451203,-73.122006,1,rooftop,200,"Commerce St",,,Williston,VT,"Chittenden County",05495,US,"VT Enhanced 911 Board, VCGI"
"27956 State Highway 128,Winters,CA",38.52491,-121.9708,0.33,place,,,,,Winters,CA,"Yolo County",95694,US,"TIGER/Line® dataset from the US Census Bureau"
"225 South Pacific Highway,Woodburn,OR",45.134521,-122.846479,1,range_interpolation,225,"S Pacific Hwy",,,Woodburn,OR,"Marion County",97071,US,"TIGER/Line® dataset from the US Census Bureau"
"20051 Ventura Blvd Suite,Woodland Hills,CA",34.171466,-118.57008,1,rooftop,20051,"Ventura Blvd",Ste,WOODLAND,"Woodland Hills",CA,"Los Angeles County",91364,US,"Los Angeles County"
"32161 Yucaipa Boulevard,Yucaipa,CA",34.032731,-117.101677,1,rooftop,32161,"Yucaipa Blvd",,,Yucaipa,CA,"San Bernardino County",92399,US,"San Bernardino County"
